{"MRData": {"xmlns": "http://ergast.com/mrd/1.5", "series": "f1", "url": "http://ergast.com/api/f1/1980/circuits.json", "limit": "30", "offset": "0", "total": "14", "CircuitTable": {"season": "1980", "Circuits": [{"circuitId": "brands_hatch", "url": "http://en.wikipedia.org/wiki/Brands_Hatch", "circuitName": "Brands Hatch", "Location": {"lat": "51.3569", "long": "0.263056", "locality": "Kent", "country": "UK"}, "round": "8"}, {"circuitId": "galvez", "url": "http://en.wikipedia.org/wiki/Aut%C3%B3dromo_Oscar_Alfredo_G%C3%A1lvez", "circuitName": "Aut\u00f3dromo Juan y Oscar G\u00e1lvez", "Location": {"lat": "-34.6943", "long": "-58.4593", "locality": "Buenos Aires", "country": "Argentina"}, "round": "1"}, {"circuitId": "hockenheimring", "url": "http://en.wikipedia.org/wiki/Hockenheimring", "circuitName": "Hockenheimring", "Location": {"lat": "49.3278", "long": "8.56583", "locality": "Hockenheim", "country": "Germany"}, "round": "9"}, {"circuitId": "imola", "url": "http://en.wikipedia.org/wiki/Autodromo_Enzo_e_Dino_Ferrari", "circuitName": "Autodromo Enzo e Dino Ferrari", "Location": {"lat": "44.3439", "long": "11.7167", "locality": "Imola", "country": "Italy"}, "round": "12"}, {"circuitId": "interlagos", "url": "http://en.wikipedia.org/wiki/Aut%C3%B3dromo_Jos%C3%A9_Carlos_Pace", "circuitName": "Aut\u00f3dromo Jos\u00e9 Carlos Pace", "Location": {"lat": "-23.7036", "long": "-46.6997", "locality": "S\u00e3o Paulo", "country": "Brazil"}, "round": "2"}, {"circuitId": "kyalami", "url": "http://en.wikipedia.org/wiki/Kyalami", "circuitName": "Kyalami", "Location": {"lat": "-25.9894", "long": "28.0767", "locality": "Midrand", "country": "South Africa"}, "round": "3"}, {"circuitId": "long_beach", "url": "http://en.wikipedia.org/wiki/Long_Beach,_California", "circuitName": "Long Beach", "Location": {"lat": "33.7651", "long": "-118.189", "locality": "California", "country": "USA"}, "round": "4"}, {"circuitId": "monaco", "url": "http://en.wikipedia.org/wiki/Circuit_de_Monaco", "circuitName": "Circuit de Monaco", "Location": {"lat": "43.7347", "long": "7.42056", "locality": "Monte-Carlo", "country": "Monaco"}, "round": "6"}, {"circuitId": "red_bull_ring", "url": "http://en.wikipedia.org/wiki/Red_Bull_Ring", "circuitName": "Red Bull Ring", "Location": {"lat": "47.2197", "long": "14.7647", "locality": "Spielberg", "country": "Austria"}, "round": "10"}, {"circuitId": "ricard", "url": "http://en.wikipedia.org/wiki/Paul_Ricard_Circuit", "circuitName": "Circuit Paul Ricard", "Location": {"lat": "43.2506", "long": "5.79167", "locality": "Le Castellet", "country": "France"}, "round": "7"}, {"circuitId": "villeneuve", "url": "http://en.wikipedia.org/wiki/Circuit_Gilles_Villeneuve", "circuitName": "Circuit Gilles Villeneuve", "Location": {"lat": "45.5", "long": "-73.5228", "locality": "Montreal", "country": "Canada"}, "round": "13"}, {"circuitId": "watkins_glen", "url": "http://en.wikipedia.org/wiki/Watkins_Glen_International", "circuitName": "Watkins Glen", "Location": {"lat": "42.3369", "long": "-76.9272", "locality": "New York State", "country": "USA"}, "round": "14"}, {"circuitId": "zandvoort", "url": "http://en.wikipedia.org/wiki/Circuit_Zandvoort", "circuitName": "Circuit Park Zandvoort", "Location": {"lat": "52.3888", "long": "4.54092", "locality": "Zandvoort", "country": "Netherlands"}, "round": "11"}, {"circuitId": "zolder", "url": "http://en.wikipedia.org/wiki/Zolder", "circuitName": "Zolder", "Location": {"lat": "50.9894", "long": "5.25694", "locality": "Heusden-Zolder", "country": "Belgium"}, "round": "5"}]}}}