{"MRData": {"xmlns": "http://ergast.com/mrd/1.5", "series": "f1", "url": "http://ergast.com/api/f1/1982/circuits.json", "limit": "30", "offset": "0", "total": "16", "CircuitTable": {"season": "1982", "Circuits": [{"circuitId": "brands_hatch", "url": "http://en.wikipedia.org/wiki/Brands_Hatch", "circuitName": "Brands Hatch", "Location": {"lat": "51.3569", "long": "0.263056", "locality": "Kent", "country": "UK"}, "round": "10"}, {"circuitId": "detroit", "url": "http://en.wikipedia.org/wiki/Detroit_street_circuit", "circuitName": "Detroit Street Circuit", "Location": {"lat": "42.3298", "long": "-83.0401", "locality": "Detroit", "country": "USA"}, "round": "7"}, {"circuitId": "dijon", "url": "http://en.wikipedia.org/wiki/Dijon-Prenois", "circuitName": "Dijon-Prenois", "Location": {"lat": "47.3625", "long": "4.89913", "locality": "Dijon", "country": "France"}, "round": "14"}, {"circuitId": "hockenheimring", "url": "http://en.wikipedia.org/wiki/Hockenheimring", "circuitName": "Hockenheimring", "Location": {"lat": "49.3278", "long": "8.56583", "locality": "Hockenheim", "country": "Germany"}, "round": "12"}, {"circuitId": "imola", "url": "http://en.wikipedia.org/wiki/Autodromo_Enzo_e_Dino_Ferrari", "circuitName": "Autodromo Enzo e Dino Ferrari", "Location": {"lat": "44.3439", "long": "11.7167", "locality": "Imola", "country": "Italy"}, "round": "4"}, {"circuitId": "jacarepagua", "url": "http://en.wikipedia.org/wiki/Aut%C3%B3dromo_Internacional_Nelson_Piquet", "circuitName": "Aut\u00f3dromo Internacional Nelson Piquet", "Location": {"lat": "-22.9756", "long": "-43.395", "locality": "Rio de Janeiro", "country": "Brazil"}, "round": "2"}, {"circuitId": "kyalami", "url": "http://en.wikipedia.org/wiki/Kyalami", "circuitName": "Kyalami", "Location": {"lat": "-25.9894", "long": "28.0767", "locality": "Midrand", "country": "South Africa"}, "round": "1"}, {"circuitId": "las_vegas", "url": "http://en.wikipedia.org/wiki/Las_Vegas_Street_Circuit", "circuitName": "Las Vegas Street Circuit", "Location": {"lat": "36.1162", "long": "-115.174", "locality": "Nevada", "country": "USA"}, "round": "16"}, {"circuitId": "long_beach", "url": "http://en.wikipedia.org/wiki/Long_Beach,_California", "circuitName": "Long Beach", "Location": {"lat": "33.7651", "long": "-118.189", "locality": "California", "country": "USA"}, "round": "3"}, {"circuitId": "monaco", "url": "http://en.wikipedia.org/wiki/Circuit_de_Monaco", "circuitName": "Circuit de Monaco", "Location": {"lat": "43.7347", "long": "7.42056", "locality": "Monte-Carlo", "country": "Monaco"}, "round": "6"}, {"circuitId": "monza", "url": "http://en.wikipedia.org/wiki/Autodromo_Nazionale_Monza", "circuitName": "Autodromo Nazionale di Monza", "Location": {"lat": "45.6156", "long": "9.28111", "locality": "Monza", "country": "Italy"}, "round": "15"}, {"circuitId": "red_bull_ring", "url": "http://en.wikipedia.org/wiki/Red_Bull_Ring", "circuitName": "Red Bull Ring", "Location": {"lat": "47.2197", "long": "14.7647", "locality": "Spielberg", "country": "Austria"}, "round": "13"}, {"circuitId": "ricard", "url": "http://en.wikipedia.org/wiki/Paul_Ricard_Circuit", "circuitName": "Circuit Paul Ricard", "Location": {"lat": "43.2506", "long": "5.79167", "locality": "Le Castellet", "country": "France"}, "round": "11"}, {"circuitId": "villeneuve", "url": "http://en.wikipedia.org/wiki/Circuit_Gilles_Villeneuve", "circuitName": "Circuit Gilles Villeneuve", "Location": {"lat": "45.5", "long": "-73.5228", "locality": "Montreal", "country": "Canada"}, "round": "8"}, {"circuitId": "zandvoort", "url": "http://en.wikipedia.org/wiki/Circuit_Zandvoort", "circuitName": "Circuit Park Zandvoort", "Location": {"lat": "52.3888", "long": "4.54092", "locality": "Zandvoort", "country": "Netherlands"}, "round": "9"}, {"circuitId": "zolder", "url": "http://en.wikipedia.org/wiki/Zolder", "circuitName": "Zolder", "Location": {"lat": "50.9894", "long": "5.25694", "locality": "Heusden-Zolder", "country": "Belgium"}, "round": "5"}]}}}