{"MRData": {"xmlns": "http://ergast.com/mrd/1.5", "series": "f1", "url": "http://ergast.com/api/f1/1973/circuits.json", "limit": "30", "offset": "0", "total": "15", "CircuitTable": {"season": "1973", "Circuits": [{"circuitId": "anderstorp", "url": "http://en.wikipedia.org/wiki/Scandinavian_Raceway", "circuitName": "Scandinavian Raceway", "Location": {"lat": "57.2653", "long": "13.6042", "locality": "Anderstorp", "country": "Sweden"}, "round": "7"}, {"circuitId": "galvez", "url": "http://en.wikipedia.org/wiki/Aut%C3%B3dromo_Oscar_Alfredo_G%C3%A1lvez", "circuitName": "Aut\u00f3dromo Juan y Oscar G\u00e1lvez", "Location": {"lat": "-34.6943", "long": "-58.4593", "locality": "Buenos Aires", "country": "Argentina"}, "round": "1"}, {"circuitId": "interlagos", "url": "http://en.wikipedia.org/wiki/Aut%C3%B3dromo_Jos%C3%A9_Carlos_Pace", "circuitName": "Aut\u00f3dromo Jos\u00e9 Carlos Pace", "Location": {"lat": "-23.7036", "long": "-46.6997", "locality": "S\u00e3o Paulo", "country": "Brazil"}, "round": "2"}, {"circuitId": "kyalami", "url": "http://en.wikipedia.org/wiki/Kyalami", "circuitName": "Kyalami", "Location": {"lat": "-25.9894", "long": "28.0767", "locality": "Midrand", "country": "South Africa"}, "round": "3"}, {"circuitId": "monaco", "url": "http://en.wikipedia.org/wiki/Circuit_de_Monaco", "circuitName": "Circuit de Monaco", "Location": {"lat": "43.7347", "long": "7.42056", "locality": "Monte-Carlo", "country": "Monaco"}, "round": "6"}, {"circuitId": "montjuic", "url": "http://en.wikipedia.org/wiki/Montju%C3%AFc_circuit", "circuitName": "Montju\u00efc", "Location": {"lat": "41.3664", "long": "2.15167", "locality": "Barcelona", "country": "Spain"}, "round": "4"}, {"circuitId": "monza", "url": "http://en.wikipedia.org/wiki/Autodromo_Nazionale_Monza", "circuitName": "Autodromo Nazionale di Monza", "Location": {"lat": "45.6156", "long": "9.28111", "locality": "Monza", "country": "Italy"}, "round": "13"}, {"circuitId": "mosport", "url": "http://en.wikipedia.org/wiki/Mosport", "circuitName": "Mosport International Raceway", "Location": {"lat": "44.0481", "long": "-78.6756", "locality": "Ontario", "country": "Canada"}, "round": "14"}, {"circuitId": "nurburgring", "url": "http://en.wikipedia.org/wiki/N%C3%BCrburgring", "circuitName": "N\u00fcrburgring", "Location": {"lat": "50.3356", "long": "6.9475", "locality": "N\u00fcrburg", "country": "Germany"}, "round": "11"}, {"circuitId": "red_bull_ring", "url": "http://en.wikipedia.org/wiki/Red_Bull_Ring", "circuitName": "Red Bull Ring", "Location": {"lat": "47.2197", "long": "14.7647", "locality": "Spielberg", "country": "Austria"}, "round": "12"}, {"circuitId": "ricard", "url": "http://en.wikipedia.org/wiki/Paul_Ricard_Circuit", "circuitName": "Circuit Paul Ricard", "Location": {"lat": "43.2506", "long": "5.79167", "locality": "Le Castellet", "country": "France"}, "round": "8"}, {"circuitId": "silverstone", "url": "http://en.wikipedia.org/wiki/Silverstone_Circuit", "circuitName": "Silverstone Circuit", "Location": {"lat": "52.0786", "long": "-1.01694", "locality": "Silverstone", "country": "UK"}, "round": "9"}, {"circuitId": "watkins_glen", "url": "http://en.wikipedia.org/wiki/Watkins_Glen_International", "circuitName": "Watkins Glen", "Location": {"lat": "42.3369", "long": "-76.9272", "locality": "New York State", "country": "USA"}, "round": "15"}, {"circuitId": "zandvoort", "url": "http://en.wikipedia.org/wiki/Circuit_Zandvoort", "circuitName": "Circuit Park Zandvoort", "Location": {"lat": "52.3888", "long": "4.54092", "locality": "Zandvoort", "country": "Netherlands"}, "round": "10"}, {"circuitId": "zolder", "url": "http://en.wikipedia.org/wiki/Zolder", "circuitName": "Zolder", "Location": {"lat": "50.9894", "long": "5.25694", "locality": "Heusden-Zolder", "country": "Belgium"}, "round": "5"}]}}}