{"MRData": {"xmlns": "http://ergast.com/mrd/1.5", "series": "f1", "url": "http://ergast.com/api/f1/1985/circuits.json", "limit": "30", "offset": "0", "total": "16", "CircuitTable": {"season": "1985", "Circuits": [{"circuitId": "adelaide", "url": "http://en.wikipedia.org/wiki/Adelaide_Street_Circuit", "circuitName": "Adelaide Street Circuit", "Location": {"lat": "-34.9272", "long": "138.617", "locality": "Adelaide", "country": "Australia"}, "round": "16"}, {"circuitId": "brands_hatch", "url": "http://en.wikipedia.org/wiki/Brands_Hatch", "circuitName": "Brands Hatch", "Location": {"lat": "51.3569", "long": "0.263056", "locality": "Kent", "country": "UK"}, "round": "14"}, {"circuitId": "detroit", "url": "http://en.wikipedia.org/wiki/Detroit_street_circuit", "circuitName": "Detroit Street Circuit", "Location": {"lat": "42.3298", "long": "-83.0401", "locality": "Detroit", "country": "USA"}, "round": "6"}, {"circuitId": "estoril", "url": "http://en.wikipedia.org/wiki/Aut%C3%B3dromo_do_Estoril", "circuitName": "Aut\u00f3dromo do Estoril", "Location": {"lat": "38.7506", "long": "-9.39417", "locality": "Estoril", "country": "Portugal"}, "round": "2"}, {"circuitId": "imola", "url": "http://en.wikipedia.org/wiki/Autodromo_Enzo_e_Dino_Ferrari", "circuitName": "Autodromo Enzo e Dino Ferrari", "Location": {"lat": "44.3439", "long": "11.7167", "locality": "Imola", "country": "Italy"}, "round": "3"}, {"circuitId": "jacarepagua", "url": "http://en.wikipedia.org/wiki/Aut%C3%B3dromo_Internacional_Nelson_Piquet", "circuitName": "Aut\u00f3dromo Internacional Nelson Piquet", "Location": {"lat": "-22.9756", "long": "-43.395", "locality": "Rio de Janeiro", "country": "Brazil"}, "round": "1"}, {"circuitId": "kyalami", "url": "http://en.wikipedia.org/wiki/Kyalami", "circuitName": "Kyalami", "Location": {"lat": "-25.9894", "long": "28.0767", "locality": "Midrand", "country": "South Africa"}, "round": "15"}, {"circuitId": "monaco", "url": "http://en.wikipedia.org/wiki/Circuit_de_Monaco", "circuitName": "Circuit de Monaco", "Location": {"lat": "43.7347", "long": "7.42056", "locality": "Monte-Carlo", "country": "Monaco"}, "round": "4"}, {"circuitId": "monza", "url": "http://en.wikipedia.org/wiki/Autodromo_Nazionale_Monza", "circuitName": "Autodromo Nazionale di Monza", "Location": {"lat": "45.6156", "long": "9.28111", "locality": "Monza", "country": "Italy"}, "round": "12"}, {"circuitId": "nurburgring", "url": "http://en.wikipedia.org/wiki/N%C3%BCrburgring", "circuitName": "N\u00fcrburgring", "Location": {"lat": "50.3356", "long": "6.9475", "locality": "N\u00fcrburg", "country": "Germany"}, "round": "9"}, {"circuitId": "red_bull_ring", "url": "http://en.wikipedia.org/wiki/Red_Bull_Ring", "circuitName": "Red Bull Ring", "Location": {"lat": "47.2197", "long": "14.7647", "locality": "Spielberg", "country": "Austria"}, "round": "10"}, {"circuitId": "ricard", "url": "http://en.wikipedia.org/wiki/Paul_Ricard_Circuit", "circuitName": "Circuit Paul Ricard", "Location": {"lat": "43.2506", "long": "5.79167", "locality": "Le Castellet", "country": "France"}, "round": "7"}, {"circuitId": "silverstone", "url": "http://en.wikipedia.org/wiki/Silverstone_Circuit", "circuitName": "Silverstone Circuit", "Location": {"lat": "52.0786", "long": "-1.01694", "locality": "Silverstone", "country": "UK"}, "round": "8"}, {"circuitId": "spa", "url": "http://en.wikipedia.org/wiki/Circuit_de_Spa-Francorchamps", "circuitName": "Circuit de Spa-Francorchamps", "Location": {"lat": "50.4372", "long": "5.97139", "locality": "Spa", "country": "Belgium"}, "round": "13"}, {"circuitId": "villeneuve", "url": "http://en.wikipedia.org/wiki/Circuit_Gilles_Villeneuve", "circuitName": "Circuit Gilles Villeneuve", "Location": {"lat": "45.5", "long": "-73.5228", "locality": "Montreal", "country": "Canada"}, "round": "5"}, {"circuitId": "zandvoort", "url": "http://en.wikipedia.org/wiki/Circuit_Zandvoort", "circuitName": "Circuit Park Zandvoort", "Location": {"lat": "52.3888", "long": "4.54092", "locality": "Zandvoort", "country": "Netherlands"}, "round": "11"}]}}}